station_id,name,lat,lon,x,y,comment
tpsb,Tom Paine Slough Barrier,37.790311,-121.418505,639249.8742,4183727.837
oldrb,Old River Barrier,37.810146,-121.542836,628267.6895,4185750.765
glcb,Grant Line Canal Barrier,37.819771,-121.448316,636570.6401,4186952.71
ccfbg,Clifton Court Forebay Radial Gates,37.829885,-121.556913,626994.7,4187921.712
midrb,Middle River Barrier,37.885483,-121.482265,633463.8794,4194194.92
smscg,Suisun Marsh Salinity Control Structure,38.0932,-121.886341,597653.8558,4216741.398
dcc,Delta Cross Channel Radial Gates,38.246588,-121.509607,630416.5954,4234225.234
